sent.seconds;sent.microseconds;received.seconds;received.microseconds;sampleTimeStamp.seconds;sampleTimeStamp.microseconds;vx;vy;vz;rollRate;pitchRate;yawRate;
1653318750;959387;1653318750;960076;1653318750;959369;0.325;0.01903532;0;0;0;0.1907319;
1653318750;988935;1653318750;989008;1653318750;988918;0.325;0.01903532;0;0;0;0.1907319;
1653318751;17070;1653318751;17133;1653318751;17052;0.325;0.01682642;0;0;0;0.1612299;
1653318751;42402;1653318751;42503;1653318751;42377;0.325;0.01567931;0;0;0;0.1497108;
1653318751;68126;1653318751;68226;1653318751;68094;0.325;0.01506482;0;0;0;0.1453184;
1653318751;93492;1653318751;93554;1653318751;93473;0.325;0.01472686;0;0;0;0.1437088;
1653318751;121483;1653318751;121559;1653318751;121458;0.325;0.01453699;0;0;0;0.1431607;
1653318751;147112;1653318751;147311;1653318751;147079;0.325;0.01442857;0;0;0;0.1430016;
1653318751;173202;1653318751;173264;1653318751;173184;0.325;0.0143659;0;0;0;0.1429751;
1653318751;198670;1653318751;198733;1653318751;198652;0.325;0.01432934;0;0;0;0.1429872;
1653318751;224132;1653318751;224193;1653318751;224114;0.325;0.01430789;0;0;0;0.1430057;
1653318751;250358;1653318751;250489;1653318751;250336;0.325;0.01429524;0;0;0;0.1430214;
1653318751;276390;1653318751;276446;1653318751;276377;0.325;0.01428776;0;0;0;0.1430326;
1653318751;302135;1653318751;302268;1653318751;302082;0.325;0.01428332;0;0;0;0.1430401;
1653318751;327676;1653318751;327744;1653318751;327656;0.325;0.01428069;0;0;0;0.1430448;
1653318751;356454;1653318751;356518;1653318751;356436;0.325;0.01427913;0;0;0;0.1430478;
1653318751;383682;1653318751;383759;1653318751;383661;0.325;0.0142782;0;0;0;0.1430496;
1653318751;409055;1653318751;409168;1653318751;409036;0.325;0.01427764;0;0;0;0.1430507;
1653318751;439833;1653318751;439905;1653318751;439813;0.325;0.01427731;0;0;0;0.1430514;
1653318751;465153;1653318751;465232;1653318751;465132;0.325;0.01427712;0;0;0;0.1430518;
1653318751;490584;1653318751;490669;1653318751;490561;0.325;0.014277;0;0;0;0.143052;
1653318751;516113;1653318751;516184;1653318751;516093;0.325;0.01427693;0;0;0;0.1430522;
1653318751;541890;1653318751;542435;1653318751;541865;0.325;0.01427689;0;0;0;0.1430523;
1653318751;567124;1653318751;567199;1653318751;567102;0.325;0.01427686;0;0;0;0.1430523;
1653318751;593106;1653318751;593181;1653318751;593086;0.325;0.01427685;0;0;0;0.1430523;
1653318751;618846;1653318751;618906;1653318751;618828;0.325;0.01427684;0;0;0;0.1430524;
1653318751;644480;1653318751;644570;1653318751;644452;0.325;0.01427684;0;0;0;0.1430524;
1653318751;671165;1653318751;671222;1653318751;671148;0.325;0.01427683;0;0;0;0.1430524;
1653318751;696610;1653318751;696674;1653318751;696590;0.325;0.01427683;0;0;0;0.1430524;
1653318751;721921;1653318751;721984;1653318751;721903;0.325;0.01427683;0;0;0;0.1430524;
1653318751;747282;1653318751;747380;1653318751;747212;0.325;0.01427683;0;0;0;0.1430524;
1653318751;772754;1653318751;772823;1653318751;772735;0.325;0.01427683;0;0;0;0.1430524;
1653318751;798224;1653318751;798306;1653318751;798203;0.325;0.01427683;0;0;0;0.1430524;
1653318751;823739;1653318751;823802;1653318751;823718;0.325;0.01427683;0;0;0;0.1430524;
1653318751;849076;1653318751;849139;1653318751;849059;0.325;0.01427683;0;0;0;0.1430524;
1653318751;874462;1653318751;874533;1653318751;874441;0.325;0.01427683;0;0;0;0.1430524;
1653318751;900019;1653318751;900075;1653318751;900003;0.325;0.01427683;0;0;0;0.1430524;
1653318751;925331;1653318751;925402;1653318751;925311;0.325;0.01427683;0;0;0;0.1430524;
1653318751;950927;1653318751;951023;1653318751;950899;0.325;0.01427683;0;0;0;0.1430524;
1653318751;976338;1653318751;976401;1653318751;976319;0.325;0.01427683;0;0;0;0.1430524;
1653318752;3481;1653318752;3556;1653318752;3456;0.325;0.01427683;0;0;0;0.1430524;
1653318752;32778;1653318752;32842;1653318752;32760;0.325;0.01427683;0;0;0;0.1430524;
1653318752;58613;1653318752;58729;1653318752;58591;0.325;0.01427683;0;0;0;0.1430524;
1653318752;92373;1653318752;92439;1653318752;92326;0.325;0.01427683;0;0;0;0.1430524;
1653318752;117665;1653318752;117733;1653318752;117647;0.325;0.01427683;0;0;0;0.1430524;
1653318752;143202;1653318752;143264;1653318752;143183;0.325;0.02753293;0;0;0;0.3201009;
1653318752;169348;1653318752;169463;1653318752;169321;0.325;0.03441694;0;0;0;0.3892289;
1653318752;194779;1653318752;194880;1653318752;194761;0.325;0.03810464;0;0;0;0.415589;
1653318752;224607;1653318752;224698;1653318752;224584;0.325;0.04013284;0;0;0;0.4252484;
1653318752;252533;1653318752;252639;1653318752;252509;0.325;0.04127224;0;0;0;0.428538;
1653318752;279310;1653318752;279377;1653318752;279291;0.325;0.0419229;0;0;0;0.4294927;
1653318752;304801;1653318752;304862;1653318752;304779;0.325;0.04229902;0;0;0;0.4296516;
1653318752;330082;1653318752;330152;1653318752;330063;0.325;0.04251839;0;0;0;0.4295791;
1653318752;360350;1653318752;360464;1653318752;360322;0.325;0.04264715;0;0;0;0.4294679;
1653318752;385815;1653318752;385876;1653318752;385798;0.325;0.04272307;0;0;0;0.4293738;
1653318752;411392;1653318752;411462;1653318752;411371;0.325;0.04276796;0;0;0;0.4293064;
1653318752;440406;1653318752;440471;1653318752;440386;0.325;0.04279458;0;0;0;0.4292617;
1653318752;465803;1653318752;465917;1653318752;465763;0.325;0.04281038;0;0;0;0.4292331;
1653318752;491418;1653318752;491493;1653318752;491361;0.325;0.04281976;0;0;0;0.4292154;
1653318752;516899;1653318752;516961;1653318752;516872;0.325;0.04282535;0;0;0;0.4292045;
1653318752;542295;1653318752;542553;1653318752;542271;0.325;0.04282867;0;0;0;0.4291979;
1653318752;567906;1653318752;567989;1653318752;567881;0.325;0.04283065;0;0;0;0.4291939;
1653318752;593251;1653318752;593312;1653318752;593233;0.325;0.04283182;0;0;0;0.4291915;
1653318752;620456;1653318752;620529;1653318752;620435;0.325;0.04283252;0;0;0;0.42919;
1653318752;648476;1653318752;648540;1653318752;648458;0.325;0.04283294;0;0;0;0.4291892;
1653318752;675453;1653318752;675523;1653318752;675434;0.325;0.04283319;0;0;0;0.4291887;
1653318752;701348;1653318752;701412;1653318752;701329;0.325;0.04283334;0;0;0;0.4291884;
1653318752;726682;1653318752;726756;1653318752;726641;0.325;0.04283343;0;0;0;0.4291882;
1653318752;764148;1653318752;764219;1653318752;764127;0.325;0.04283348;0;0;0;0.4291881;
1653318752;796556;1653318752;796623;1653318752;796537;0.325;0.04283351;0;0;0;0.429188;
1653318752;822267;1653318752;822388;1653318752;822198;0.325;0.04283353;0;0;0;0.429188;
1653318752;847705;1653318752;847786;1653318752;847661;0.325;0.04283354;0;0;0;0.429188;
1653318752;873952;1653318752;874018;1653318752;873931;0.325;0.04283355;0;0;0;0.4291879;
1653318752;899306;1653318752;899372;1653318752;899289;0.325;0.04283355;0;0;0;0.4291879;
1653318752;924908;1653318752;924974;1653318752;924887;0.325;0.04283355;0;0;0;0.4291879;
1653318752;951537;1653318752;951610;1653318752;951517;0.325;0.04283356;0;0;0;0.4291879;
1653318752;977183;1653318752;977261;1653318752;977161;0.325;0.04283356;0;0;0;0.4291879;
1653318753;2828;1653318753;2893;1653318753;2804;0.325;0.04283356;0;0;0;0.4291879;
1653318753;31458;1653318753;31524;1653318753;31440;0.325;0.04283356;0;0;0;0.4291879;
1653318753;60160;1653318753;60222;1653318753;60142;0.325;0.04283356;0;0;0;0.4291879;
1653318753;85523;1653318753;85670;1653318753;85485;0.325;0.04283356;0;0;0;0.4291879;
1653318753;111000;1653318753;111070;1653318753;110981;0.325;0.04283356;0;0;0;0.4291879;
1653318753;136302;1653318753;136399;1653318753;136282;0.325;0.04283356;0;0;0;0.4291879;
1653318753;161699;1653318753;161814;1653318753;161673;0.325;0.04283356;0;0;0;0.4291879;
1653318753;187117;1653318753;187190;1653318753;187098;0.325;0.04283356;0;0;0;0.4291879;
1653318753;212425;1653318753;212484;1653318753;212407;0.325;0.03866925;0;0;0;0.3735695;
1653318753;237834;1653318753;237905;1653318753;237816;0.325;0.0365067;0;0;0;0.3518535;
1653318753;263244;1653318753;263311;1653318753;263226;0.325;0.03534824;0;0;0;0.3435726;
1653318753;288594;1653318753;288676;1653318753;288569;0.325;0.03471109;0;0;0;0.3405382;
1653318753;313996;1653318753;314060;1653318753;313976;0.325;0.03435316;0;0;0;0.3395048;
1653318753;339387;1653318753;339449;1653318753;339367;0.325;0.03414876;0;0;0;0.3392049;
1653318753;364814;1653318753;364885;1653318753;364794;0.325;0.0340306;0;0;0;0.339155;
1653318753;390200;1653318753;390293;1653318753;390176;0.325;0.03396169;0;0;0;0.3391778;
1653318753;420729;1653318753;420787;1653318753;420718;0.325;0.03392124;0;0;0;0.3392127;
1653318753;446065;1653318753;446137;1653318753;446044;0.325;0.03389739;0;0;0;0.3392423;
1653318753;473437;1653318753;473498;1653318753;473420;0.325;0.03388329;0;0;0;0.3392634;
1653318753;498739;1653318753;498803;1653318753;498722;0.325;0.03387493;0;0;0;0.3392775;
1653318753;524114;1653318753;524174;1653318753;524101;0.325;0.03386996;0;0;0;0.3392864;
1653318753;549401;1653318753;549461;1653318753;549384;0.325;0.03386701;0;0;0;0.339292;
1653318753;574830;1653318753;574893;1653318753;574811;0.325;0.03386526;0;0;0;0.3392954;
1653318753;600270;1653318753;600336;1653318753;600249;0.325;0.03386422;0;0;0;0.3392975;
1653318753;625763;1653318753;625833;1653318753;625737;0.325;0.0338636;0;0;0;0.3392988;
1653318753;651090;1653318753;651155;1653318753;651073;0.325;0.03386323;0;0;0;0.3392995;
1653318753;676466;1653318753;676533;1653318753;676447;0.325;0.03386301;0;0;0;0.3393;
1653318753;701920;1653318753;702090;1653318753;701876;0.325;0.03386287;0;0;0;0.3393002;
1653318753;727481;1653318753;727561;1653318753;727460;0.325;0.0338628;0;0;0;0.3393004;
1653318753;753337;1653318753;753449;1653318753;753322;0.325;0.03386275;0;0;0;0.3393005;
1653318753;778875;1653318753;778947;1653318753;778855;0.325;0.03386272;0;0;0;0.3393006;
1653318753;805127;1653318753;805200;1653318753;805107;0.325;0.03386271;0;0;0;0.3393006;
1653318753;830398;1653318753;830480;1653318753;830380;0.325;0.0338627;0;0;0;0.3393006;
1653318753;856463;1653318753;856534;1653318753;856443;0.325;0.03386269;0;0;0;0.3393006;
1653318753;881722;1653318753;881815;1653318753;881697;0.325;0.03386269;0;0;0;0.3393006;
1653318753;907087;1653318753;907151;1653318753;907069;0.325;0.03386268;0;0;0;0.3393006;
1653318753;933028;1653318753;933103;1653318753;933008;0.325;0.03386268;0;0;0;0.3393007;
1653318753;958612;1653318753;958688;1653318753;958592;0.325;0.03386268;0;0;0;0.3393007;
1653318753;992448;1653318753;992529;1653318753;992430;0.325;0.03386268;0;0;0;0.3393007;
1653318754;18047;1653318754;18131;1653318754;18023;0.325;0.03386268;0;0;0;0.3393007;
1653318754;45189;1653318754;45315;1653318754;45164;0.325;0.03386268;0;0;0;0.3393007;
1653318754;85664;1653318754;85745;1653318754;85644;0.325;0.03386268;0;0;0;0.3393007;
1653318754;112278;1653318754;112370;1653318754;112253;0.325;0.03386268;0;0;0;0.3393007;
1653318754;137846;1653318754;137914;1653318754;137828;0.325;0.03386268;0;0;0;0.3393007;
1653318754;163560;1653318754;163633;1653318754;163501;0.325;0.03386268;0;0;0;0.3393007;
1653318754;189394;1653318754;189463;1653318754;189374;0.325;0.03386268;0;0;0;0.3393007;
1653318754;216592;1653318754;216669;1653318754;216569;0.325;0.03386268;0;0;0;0.3393007;
1653318754;248446;1653318754;248517;1653318754;248426;0.325;0.03386268;0;0;0;0.3393007;
1653318754;276561;1653318754;276645;1653318754;276538;0.325;0.03386268;0;0;0;0.3393007;
1653318754;302113;1653318754;302213;1653318754;302030;0.325;0.03386268;0;0;0;0.3393007;
1653318754;328340;1653318754;328492;1653318754;328316;0.325;0.03386268;0;0;0;0.3393007;
1653318754;354408;1653318754;354469;1653318754;354371;0.325;0.03386268;0;0;0;0.3393007;
1653318754;379981;1653318754;380053;1653318754;379959;0.325;0.02485851;0;0;0;0.219041;
1653318754;405784;1653318754;405847;1653318754;405765;0.325;0.02018256;0;0;0;0.1720859;
1653318754;431185;1653318754;431246;1653318754;431169;0.325;0.01767771;0;0;0;0.1541809;
1653318754;456845;1653318754;456952;1653318754;456824;0.325;0.01630006;0;0;0;0.1476198;
1653318754;482554;1653318754;482653;1653318754;482532;0.325;0.01552613;0;0;0;0.1453853;
1653318754;507946;1653318754;508037;1653318754;507927;0.325;0.01508417;0;0;0;0.1447369;
1653318754;533393;1653318754;533461;1653318754;533377;0.325;0.01482869;0;0;0;0.144629;
1653318754;558729;1653318754;558798;1653318754;558710;0.325;0.01467968;0;0;0;0.1446782;
1653318754;584364;1653318754;584428;1653318754;584344;0.325;0.01459222;0;0;0;0.1447538;
1653318754;610269;1653318754;610341;1653318754;610249;0.325;0.01454066;0;0;0;0.1448177;
1653318754;635616;1653318754;635695;1653318754;635597;0.325;0.01451016;0;0;0;0.1448634;
1653318754;661137;1653318754;661201;1653318754;661116;0.325;0.01449208;0;0;0;0.1448938;
1653318754;690931;1653318754;691019;1653318754;690900;0.325;0.01448135;0;0;0;0.1449132;
1653318754;716737;1653318754;716820;1653318754;716718;0.325;0.01447497;0;0;0;0.1449252;
1653318754;742112;1653318754;742180;1653318754;742073;0.325;0.01447118;0;0;0;0.1449326;
1653318754;767423;1653318754;767492;1653318754;767406;0.325;0.01446892;0;0;0;0.1449371;
1653318754;792787;1653318754;792859;1653318754;792767;0.325;0.01446758;0;0;0;0.1449399;
1653318754;818170;1653318754;818367;1653318754;818146;0.325;0.01446678;0;0;0;0.1449415;
1653318754;843687;1653318754;843760;1653318754;843667;0.325;0.01446631;0;0;0;0.1449424;
1653318754;869274;1653318754;869397;1653318754;869235;0.325;0.01446602;0;0;0;0.144943;
1653318754;894734;1653318754;894798;1653318754;894716;0.325;0.01446585;0;0;0;0.1449434;
1653318754;920051;1653318754;920123;1653318754;920032;0.325;0.01446575;0;0;0;0.1449436;
1653318754;945411;1653318754;945478;1653318754;945393;0.325;0.01446569;0;0;0;0.1449437;
1653318754;970683;1653318754;970761;1653318754;970661;0.325;0.01446566;0;0;0;0.1449438;
1653318754;996136;1653318754;996207;1653318754;996116;0.325;0.01446564;0;0;0;0.1449438;
1653318755;21522;1653318755;21626;1653318755;21491;0.325;0.01446562;0;0;0;0.1449439;
1653318755;46875;1653318755;46954;1653318755;46852;0.325;0.01446562;0;0;0;0.1449439;
1653318755;73127;1653318755;73187;1653318755;73109;0.325;0.01446561;0;0;0;0.1449439;
1653318755;98474;1653318755;98538;1653318755;98456;0.325;0.01446561;0;0;0;0.1449439;
1653318755;124021;1653318755;124100;1653318755;124001;0.325;0.01446561;0;0;0;0.1449439;
1653318755;150241;1653318755;150308;1653318755;150223;0.325;0.01446561;0;0;0;0.1449439;
1653318755;175826;1653318755;175908;1653318755;175805;0.325;0.01446561;0;0;0;0.1449439;
1653318755;203216;1653318755;203280;1653318755;203198;0.325;0.01446561;0;0;0;0.1449439;
1653318755;230451;1653318755;230516;1653318755;230433;0.325;0.01446561;0;0;0;0.1449439;
1653318755;260529;1653318755;260605;1653318755;260509;0.325;0.01446561;0;0;0;0.1449439;
1653318755;286000;1653318755;286107;1653318755;285980;0.325;0.0144656;0;0;0;0.1449439;
1653318755;315665;1653318755;315736;1653318755;315644;0.325;0.0144656;0;0;0;0.1449439;
1653318755;347336;1653318755;347401;1653318755;347318;0.325;0.0144656;0;0;0;0.1449439;
1653318755;373032;1653318755;373095;1653318755;373014;0.325;0.0144656;0;0;0;0.1449439;
1653318755;400485;1653318755;400560;1653318755;400461;0.325;0.0144656;0;0;0;0.1449439;
1653318755;426017;1653318755;426054;1653318755;426002;0.325;0.0144656;0;0;0;0.1449439;
1653318755;451400;1653318755;451476;1653318755;451378;0.325;0.01485944;0;0;0;0.1502039;
1653318755;477374;1653318755;477469;1653318755;477356;0.325;0.01506396;0;0;0;0.1522577;
1653318755;502736;1653318755;502823;1653318755;502716;0.325;0.01517352;0;0;0;0.1530408;
1653318755;528175;1653318755;528282;1653318755;528155;0.325;0.01523378;0;0;0;0.1533278;
1653318755;553681;1653318755;553746;1653318755;553655;0.325;0.01526763;0;0;0;0.1534256;
1653318755;579224;1653318755;579317;1653318755;579183;0.325;0.01528696;0;0;0;0.1534539;
1653318755;612460;1653318755;612526;1653318755;612440;0.325;0.01529813;0;0;0;0.1534586;
1653318755;639093;1653318755;639173;1653318755;639073;0.325;0.01530465;0;0;0;0.1534565;
1653318755;664461;1653318755;664536;1653318755;664441;0.325;0.01530848;0;0;0;0.1534532;
1653318755;689838;1653318755;689901;1653318755;689821;0.325;0.01531073;0;0;0;0.1534504;
1653318755;715248;1653318755;715309;1653318755;715197;0.325;0.01531206;0;0;0;0.1534484;
1653318755;740981;1653318755;741067;1653318755;740962;0.325;0.01531286;0;0;0;0.1534471;
1653318755;766394;1653318755;766494;1653318755;766377;0.325;0.01531332;0;0;0;0.1534462;
1653318755;794089;1653318755;794162;1653318755;794069;0.325;0.0153136;0;0;0;0.1534457;
1653318755;820167;1653318755;820209;1653318755;820153;0.325;0.01531377;0;0;0;0.1534454;
1653318755;845523;1653318755;845600;1653318755;845479;0.325;0.01531387;0;0;0;0.1534452;
1653318755;870951;1653318755;871013;1653318755;870934;0.325;0.01531393;0;0;0;0.153445;
1653318755;896374;1653318755;896488;1653318755;896352;0.325;0.01531396;0;0;0;0.153445;
1653318755;921821;1653318755;921906;1653318755;921798;0.325;0.01531398;0;0;0;0.1534449;
1653318755;947501;1653318755;947561;1653318755;947484;0.325;0.015314;0;0;0;0.1534449;
1653318755;972849;1653318755;972917;1653318755;972831;0.325;0.015314;0;0;0;0.1534449;
1653318755;998178;1653318755;998251;1653318755;998159;0.325;0.01531401;0;0;0;0.1534449;
1653318756;24266;1653318756;24331;1653318756;24248;0.325;0.01531401;0;0;0;0.1534449;
1653318756;54595;1653318756;54646;1653318756;54583;0.325;0.01531401;0;0;0;0.1534449;
1653318756;80071;1653318756;80155;1653318756;80051;0.325;0.01531401;0;0;0;0.1534449;
1653318756;106304;1653318756;106381;1653318756;106281;0.325;0.01531401;0;0;0;0.1534449;
1653318756;131746;1653318756;131818;1653318756;131726;0.325;0.01531401;0;0;0;0.1534449;
1653318756;157156;1653318756;157230;1653318756;157134;0.325;0.01531401;0;0;0;0.1534449;
1653318756;182636;1653318756;182708;1653318756;182616;0.325;0.01531401;0;0;0;0.1534449;
1653318756;208080;1653318756;208159;1653318756;208056;0.325;0.01531401;0;0;0;0.1534449;
1653318756;236508;1653318756;236579;1653318756;236488;0.325;0.01531401;0;0;0;0.1534449;
1653318756;264290;1653318756;264390;1653318756;264272;0.325;0.01531401;0;0;0;0.1534449;
1653318756;290395;1653318756;290471;1653318756;290371;0.325;0.01531401;0;0;0;0.1534449;
1653318756;325130;1653318756;325193;1653318756;325110;0.325;0.01531401;0;0;0;0.1534449;
1653318756;354410;1653318756;354470;1653318756;354393;0.325;0.01531401;0;0;0;0.1534449;
1653318756;379812;1653318756;379882;1653318756;379791;0.325;0.01531401;0;0;0;0.1534449;
1653318756;405723;1653318756;405790;1653318756;405702;0.325;0.01531401;0;0;0;0.1534449;
1653318756;434801;1653318756;434897;1653318756;434781;0.325;0.01531401;0;0;0;0.1534449;
1653318756;464805;1653318756;464856;1653318756;464789;0.325;0.01531401;0;0;0;0.1534449;
1653318756;495270;1653318756;495387;1653318756;495250;0.325;0.01531401;0;0;0;0.1534449;
1653318756;521009;1653318756;521102;1653318756;520978;0.325;0.01531401;0;0;0;0.1534449;
1653318756;548818;1653318756;548905;1653318756;548786;0.325;0.01531401;0;0;0;0.1534449;
1653318756;574335;1653318756;574422;1653318756;574314;0.325;0.01531401;0;0;0;0.1534449;
1653318756;599802;1653318756;599884;1653318756;599755;0.325;0.01531401;0;0;0;0.1534449;
1653318756;625257;1653318756;625337;1653318756;625230;0.325;0.01531401;0;0;0;0.1534449;
1653318756;650693;1653318756;650789;1653318756;650672;0.325;0.01531401;0;0;0;0.1534449;
1653318756;676236;1653318756;676301;1653318756;676216;0.325;0.01531401;0;0;0;0.1534449;
1653318756;701711;1653318756;701802;1653318756;701668;0.325;0.01173442;0;0;0;0.1056359;
1653318756;727653;1653318756;727749;1653318756;727632;0.325;0.009875508;0;0;0;0.08696897;
1653318756;753127;1653318756;753199;1653318756;753106;0.325;0.008879708;0;0;0;0.07985085;
1653318756;778834;1653318756;778899;1653318756;778813;0.325;0.008332027;0;0;0;0.07724251;
1653318756;804258;1653318756;804322;1653318756;804240;0.325;0.008024349;0;0;0;0.0763542;
1653318756;829677;1653318756;829738;1653318756;829659;0.325;0.00784865;0;0;0;0.07609641;
1653318756;855694;1653318756;855782;1653318756;855671;0.325;0.007747083;0;0;0;0.0760535;
1653318756;881109;1653318756;881176;1653318756;881091;0.325;0.007687847;0;0;0;0.07607306;
1653318756;906464;1653318756;906529;1653318756;906446;0.325;0.007653078;0;0;0;0.07610311;
1653318756;931945;1653318756;932013;1653318756;931927;0.325;0.007632578;0;0;0;0.07612851;
1653318756;957908;1653318756;957975;1653318756;957890;0.325;0.007620453;0;0;0;0.0761467;
1653318756;983360;1653318756;983441;1653318756;983335;0.325;0.007613267;0;0;0;0.07615878;
1653318757;8881;1653318757;8962;1653318757;8858;0.325;0.007609001;0;0;0;0.07616649;
1653318757;34276;1653318757;34339;1653318757;34258;0.325;0.007606466;0;0;0;0.07617129;
1653318757;59665;1653318757;59731;1653318757;59648;0.325;0.007604958;0;0;0;0.07617423;
1653318757;85035;1653318757;85096;1653318757;85016;0.325;0.007604061;0;0;0;0.07617601;
1653318757;110498;1653318757;110572;1653318757;110477;0.325;0.007603527;0;0;0;0.07617709;
1653318757;135992;1653318757;136065;1653318757;135972;0.325;0.007603209;0;0;0;0.07617774;
1653318757;161466;1653318757;161533;1653318757;161448;0.325;0.00760302;0;0;0;0.07617813;
1653318757;187060;1653318757;187139;1653318757;187037;0.325;0.007602908;0;0;0;0.07617836;
1653318757;212494;1653318757;212557;1653318757;212471;0.325;0.007602841;0;0;0;0.0761785;
1653318757;240437;1653318757;240503;1653318757;240420;0.325;0.007602801;0;0;0;0.07617858;
1653318757;265834;1653318757;265894;1653318757;265815;0.325;0.007602777;0;0;0;0.07617863;
1653318757;291635;1653318757;291698;1653318757;291615;0.325;0.007602762;0;0;0;0.07617866;
1653318757;317176;1653318757;317241;1653318757;317159;0.325;0.007602754;0;0;0;0.07617868;
1653318757;342580;1653318757;342661;1653318757;342556;0.325;0.007602749;0;0;0;0.07617868;
1653318757;368791;1653318757;368875;1653318757;368774;0.325;0.007602746;0;0;0;0.07617869;
1653318757;396446;1653318757;396521;1653318757;396427;0.325;0.007602744;0;0;0;0.0761787;
1653318757;421820;1653318757;421900;1653318757;421798;0.325;0.007602743;0;0;0;0.0761787;
1653318757;447767;1653318757;447840;1653318757;447743;0.325;0.007602742;0;0;0;0.0761787;
1653318757;473188;1653318757;473252;1653318757;473169;0.325;0.007602742;0;0;0;0.0761787;
1653318757;498600;1653318757;498677;1653318757;498581;0.325;0.007602742;0;0;0;0.0761787;
1653318757;524122;1653318757;524189;1653318757;524103;0.325;0.007602742;0;0;0;0.0761787;
1653318757;549874;1653318757;549936;1653318757;549856;0.325;0.007602742;0;0;0;0.0761787;
1653318757;575280;1653318757;575354;1653318757;575260;0.325;0.007602742;0;0;0;0.0761787;
1653318757;601309;1653318757;601374;1653318757;601290;0.325;0.007602742;0;0;0;0.0761787;
1653318757;626904;1653318757;626967;1653318757;626882;0.325;0.007602741;0;0;0;0.0761787;
1653318757;652467;1653318757;652547;1653318757;652444;0.325;0.007602741;0;0;0;0.0761787;
1653318757;678439;1653318757;678538;1653318757;678419;0.325;0.007602741;0;0;0;0.0761787;
1653318757;704101;1653318757;704168;1653318757;704079;0.325;0.002830919;0;0;0;0.01244624;
1653318757;730399;1653318757;730457;1653318757;730380;0.325;0.0003528683;0;0;0;-0.0124379;
1653318757;755799;1653318757;755865;1653318757;755779;0.325;-0.0009745971;0;0;0;-0.0219268;
1653318757;781151;1653318757;781221;1653318757;781132;0.325;-0.001704691;0;0;0;-0.0254039;
1653318757;806659;1653318757;806726;1653318757;806640;0.325;-0.002114845;0;0;0;-0.02658807;
1653318757;832287;1653318757;832354;1653318757;832137;0.325;-0.002349064;0;0;0;-0.02693172;
1653318757;857908;1653318757;857974;1653318757;857889;0.325;-0.002484458;0;0;0;-0.02698892;
1653318757;883524;1653318757;883634;1653318757;883475;0.325;-0.002563424;0;0;0;-0.02696284;
1653318757;910036;1653318757;910115;1653318757;910012;0.325;-0.002609774;0;0;0;-0.02692278;
1653318757;936603;1653318757;936666;1653318757;935561;0.325;-0.002637101;0;0;0;-0.02688892;
1653318757;960960;1653318757;961027;1653318757;960941;0.325;-0.002653264;0;0;0;-0.02686467;
1653318757;986611;1653318757;986698;1653318757;986584;0.325;-0.002662844;0;0;0;-0.02684857;
1653318758;12088;1653318758;12150;1653318758;12070;0.325;-0.002668531;0;0;0;-0.0268383;
1653318758;37481;1653318758;37550;1653318758;37461;0.325;-0.00267191;0;0;0;-0.0268319;
1653318758;62935;1653318758;63035;1653318758;62912;0.325;-0.00267392;0;0;0;-0.02682798;
1653318758;88553;1653318758;88638;1653318758;88531;0.325;-0.002675116;0;0;0;-0.0268256;
1653318758;114016;1653318758;114129;1653318758;113995;0.325;-0.002675828;0;0;0;-0.02682416;
1653318758;139488;1653318758;139552;1653318758;139470;0.325;-0.002676251;0;0;0;-0.0268233;
1653318758;164882;1653318758;164956;1653318758;164862;0.325;-0.002676503;0;0;0;-0.02682278;
1653318758;190296;1653318758;190357;1653318758;190274;0.325;-0.002676654;0;0;0;-0.02682247;
1653318758;215872;1653318758;215962;1653318758;215845;0.325;-0.002676743;0;0;0;-0.02682229;
1653318758;241397;1653318758;241462;1653318758;241378;0.325;-0.002676796;0;0;0;-0.02682218;
1653318758;266848;1653318758;266944;1653318758;266822;0.325;-0.002676828;0;0;0;-0.02682211;
1653318758;292428;1653318758;292559;1653318758;292410;0.325;-0.002676847;0;0;0;-0.02682207;
1653318758;317919;1653318758;318115;1653318758;317894;0.325;-0.002676858;0;0;0;-0.02682205;
1653318758;346283;1653318758;346368;1653318758;346263;0.325;-0.002676865;0;0;0;-0.02682203;
1653318758;371874;1653318758;371962;1653318758;371851;0.325;-0.002676869;0;0;0;-0.02682203;
1653318758;397667;1653318758;397738;1653318758;397648;0.325;-0.002676871;0;0;0;-0.02682202;
1653318758;423248;1653318758;423336;1653318758;423230;0.325;-0.002676873;0;0;0;-0.02682202;
1653318758;448730;1653318758;448803;1653318758;448709;0.325;-0.002676873;0;0;0;-0.02682202;
1653318758;474298;1653318758;474417;1653318758;474274;0.325;-0.002676874;0;0;0;-0.02682202;
1653318758;501506;1653318758;501571;1653318758;501488;0.325;-0.002676874;0;0;0;-0.02682202;
1653318758;526883;1653318758;526946;1653318758;526865;0.325;-0.002676874;0;0;0;-0.02682202;
1653318758;553363;1653318758;553429;1653318758;553345;0.325;-0.002676875;0;0;0;-0.02682202;
1653318758;578736;1653318758;578794;1653318758;578721;0.325;-0.002676875;0;0;0;-0.02682201;
1653318758;604100;1653318758;604165;1653318758;604083;0.325;-0.002676875;0;0;0;-0.02682201;
1653318758;629502;1653318758;629572;1653318758;629482;0.325;-0.002676875;0;0;0;-0.02682201;
1653318758;654878;1653318758;654940;1653318758;654857;0.325;-0.002676875;0;0;0;-0.02682201;
1653318758;680282;1653318758;680350;1653318758;680262;0.325;-0.002676875;0;0;0;-0.02682201;
1653318758;705674;1653318758;705741;1653318758;705655;0.325;-0.002676875;0;0;0;-0.02682201;
1653318758;731071;1653318758;731133;1653318758;731054;0.325;-0.002676875;0;0;0;-0.02682201;
1653318758;757384;1653318758;757492;1653318758;757350;0.325;-0.002676875;0;0;0;-0.02682201;
1653318758;782850;1653318758;782915;1653318758;782832;0.325;-0.008817594;0;0;0;-0.1088375;
1653318758;808276;1653318758;808356;1653318758;808254;0.325;-0.01200653;0;0;0;-0.1408602;
1653318758;834011;1653318758;834103;1653318758;833982;0.325;-0.0137148;0;0;0;-0.1530711;
1653318758;859479;1653318758;859543;1653318758;859461;0.325;-0.01465434;0;0;0;-0.1575457;
1653318758;885177;1653318758;885265;1653318758;885126;0.325;-0.01518215;0;0;0;-0.1590696;
1653318758;910609;1653318758;910670;1653318758;910591;0.325;-0.01548356;0;0;0;-0.1595118;
1653318758;936067;1653318758;936176;1653318758;936029;0.325;-0.0156578;0;0;0;-0.1595854;
1653318758;961567;1653318758;961631;1653318758;961547;0.325;-0.01575942;0;0;0;-0.1595519;
1653318758;987022;1653318758;987089;1653318758;987001;0.325;-0.01581906;0;0;0;-0.1595003;
1653318759;13682;1653318759;13864;1653318759;13645;0.325;-0.01585423;0;0;0;-0.1594567;
1653318759;39303;1653318759;39367;1653318759;39285;0.325;-0.01587503;0;0;0;-0.1594255;
1653318759;64766;1653318759;64888;1653318759;64723;0.325;-0.01588736;0;0;0;-0.1594048;
1653318759;90413;1653318759;90475;1653318759;90395;0.325;-0.01589468;0;0;0;-0.1593916;
1653318759;115849;1653318759;115916;1653318759;115829;0.325;-0.01589903;0;0;0;-0.1593834;
1653318759;141539;1653318759;141600;1653318759;141521;0.325;-0.01590161;0;0;0;-0.1593783;
1653318759;166926;1653318759;167005;1653318759;166906;0.325;-0.01590315;0;0;0;-0.1593753;
1653318759;192390;1653318759;192474;1653318759;192364;0.325;-0.01590407;0;0;0;-0.1593734;
1653318759;218058;1653318759;218207;1653318759;218025;0.325;-0.01590461;0;0;0;-0.1593723;
1653318759;244152;1653318759;244219;1653318759;244134;0.325;-0.01590494;0;0;0;-0.1593716;
1653318759;269913;1653318759;269986;1653318759;269891;0.325;-0.01590513;0;0;0;-0.1593712;
1653318759;295630;1653318759;295713;1653318759;295596;0.325;-0.01590524;0;0;0;-0.159371;
1653318759;321112;1653318759;321176;1653318759;321095;0.325;-0.01590531;0;0;0;-0.1593709;
1653318759;346525;1653318759;346592;1653318759;346505;0.325;-0.01590535;0;0;0;-0.1593708;
1653318759;376856;1653318759;376946;1653318759;376827;0.325;-0.01590538;0;0;0;-0.1593707;
1653318759;408070;1653318759;408166;1653318759;408038;0.325;-0.01590539;0;0;0;-0.1593707;
1653318759;438736;1653318759;438800;1653318759;438718;0.325;-0.0159054;0;0;0;-0.1593707;
1653318759;465410;1653318759;465477;1653318759;465391;0.325;-0.01590541;0;0;0;-0.1593707;
1653318759;494482;1653318759;494550;1653318759;494464;0.325;-0.01590541;0;0;0;-0.1593706;
1653318759;523394;1653318759;523465;1653318759;523278;0.325;-0.01590541;0;0;0;-0.1593706;
1653318759;553497;1653318759;553580;1653318759;553472;0.325;-0.01590541;0;0;0;-0.1593706;
1653318759;579301;1653318759;579378;1653318759;579278;0.325;-0.01590541;0;0;0;-0.1593706;
1653318759;604622;1653318759;604705;1653318759;604601;0.325;-0.01590541;0;0;0;-0.1593706;
1653318759;634311;1653318759;634373;1653318759;634293;0.325;-0.01590541;0;0;0;-0.1593706;
1653318759;662524;1653318759;662602;1653318759;662501;0.325;-0.01590541;0;0;0;-0.1593706;
1653318759;688001;1653318759;688082;1653318759;687977;0.325;-0.01590541;0;0;0;-0.1593706;
1653318759;713965;1653318759;714028;1653318759;713948;0.325;-0.02030453;0;0;0;-0.2181252;
1653318759;739354;1653318759;739420;1653318759;739336;0.325;-0.02258902;0;0;0;-0.2410657;
1653318759;764786;1653318759;764860;1653318759;764768;0.325;-0.02381281;0;0;0;-0.2498135;
1653318759;790219;1653318759;790323;1653318759;790195;0.325;-0.02448587;0;0;0;-0.253019;
1653318759;815657;1653318759;815731;1653318759;815640;0.325;-0.02486399;0;0;0;-0.2541107;
1653318759;841049;1653318759;841194;1653318759;841030;0.325;-0.02507992;0;0;0;-0.2544275;
1653318759;866591;1653318759;866660;1653318759;866574;0.325;-0.02520474;0;0;0;-0.2544802;
1653318759;896524;1653318759;896631;1653318759;896505;0.325;-0.02527754;0;0;0;-0.2544562;
1653318759;921962;1653318759;922053;1653318759;921944;0.325;-0.02532027;0;0;0;-0.2544192;
1653318759;947610;1653318759;947675;1653318759;947557;0.325;-0.02534546;0;0;0;-0.254388;
1653318759;974776;1653318759;974845;1653318759;974758;0.325;-0.02536036;0;0;0;-0.2543657;
1653318760;5426;1653318760;5527;1653318760;5400;0.325;-0.02536919;0;0;0;-0.2543508;
1653318760;30841;1653318760;30937;1653318760;30824;0.325;-0.02537443;0;0;0;-0.2543413;
1653318760;56129;1653318760;56195;1653318760;56111;0.325;-0.02537755;0;0;0;-0.2543354;
1653318760;82891;1653318760;82979;1653318760;82854;0.325;-0.0253794;0;0;0;-0.2543318;
1653318760;108637;1653318760;108808;1653318760;108619;0.325;-0.0253805;0;0;0;-0.2543296;
1653318760;134017;1653318760;134079;1653318760;133999;0.325;-0.02538116;0;0;0;-0.2543283;
1653318760;159300;1653318760;159384;1653318760;159283;0.325;-0.02538155;0;0;0;-0.2543275;
1653318760;184680;1653318760;184741;1653318760;184653;0.325;-0.02538178;0;0;0;-0.254327;
1653318760;209968;1653318760;210033;1653318760;209951;0.325;-0.02538192;0;0;0;-0.2543267;
1653318760;235253;1653318760;235318;1653318760;235236;0.325;-0.025382;0;0;0;-0.2543266;
1653318760;261070;1653318760;261171;1653318760;261040;0.325;-0.02538205;0;0;0;-0.2543265;
1653318760;286476;1653318760;286543;1653318760;286458;0.325;-0.02538208;0;0;0;-0.2543264;
1653318760;311773;1653318760;311841;1653318760;311755;0.325;-0.0253821;0;0;0;-0.2543264;
1653318760;337206;1653318760;337278;1653318760;337186;0.325;-0.02538211;0;0;0;-0.2543263;
1653318760;363210;1653318760;363288;1653318760;363191;0.325;-0.02538212;0;0;0;-0.2543263;
1653318760;389362;1653318760;389427;1653318760;389345;0.325;-0.02538212;0;0;0;-0.2543263;
1653318760;414794;1653318760;414854;1653318760;414776;0.325;-0.02538212;0;0;0;-0.2543263;
1653318760;440109;1653318760;440172;1653318760;440091;0.325;-0.02538212;0;0;0;-0.2543263;
1653318760;468524;1653318760;468667;1653318760;468504;0.325;-0.02538212;0;0;0;-0.2543263;
1653318760;494369;1653318760;494478;1653318760;494333;0.325;-0.02538212;0;0;0;-0.2543263;
1653318760;520212;1653318760;520291;1653318760;520186;0.325;-0.02538212;0;0;0;-0.2543263;
1653318760;545615;1653318760;545680;1653318760;545597;0.325;-0.02538212;0;0;0;-0.2543263;
1653318760;570940;1653318760;571015;1653318760;570887;0.325;-0.02538212;0;0;0;-0.2543263;
1653318760;596476;1653318760;596548;1653318760;596455;0.325;-0.02538212;0;0;0;-0.2543263;
1653318760;621905;1653318760;621972;1653318760;621884;0.325;-0.02538212;0;0;0;-0.2543263;
1653318760;647758;1653318760;647833;1653318760;647736;0.325;-0.02538212;0;0;0;-0.2543263;
1653318760;673154;1653318760;673235;1653318760;673132;0.325;-0.02538212;0;0;0;-0.2543263;
1653318760;698680;1653318760;698735;1653318760;698666;0.325;-0.02538212;0;0;0;-0.2543263;
1653318760;724031;1653318760;724097;1653318760;724014;0.325;-0.02538212;0;0;0;-0.2543263;
1653318760;749348;1653318760;749388;1653318760;749334;0.325;-0.02538212;0;0;0;-0.2543263;
1653318760;774908;1653318760;774981;1653318760;774887;0.325;-0.02858001;0;0;0;-0.2970373;
1653318760;801285;1653318760;801342;1653318760;801267;0.325;-0.0302407;0;0;0;-0.3137136;
1653318760;827345;1653318760;827405;1653318760;827325;0.325;-0.03113031;0;0;0;-0.3200727;
1653318760;852689;1653318760;852750;1653318760;852672;0.325;-0.03161959;0;0;0;-0.3224029;
1653318760;884423;1653318760;884493;1653318760;884403;0.325;-0.03189446;0;0;0;-0.3231965;
1653318760;909836;1653318760;909906;1653318760;909816;0.325;-0.03205143;0;0;0;-0.3234268;
1653318760;936617;1653318760;936691;1653318760;936571;0.325;-0.03214216;0;0;0;-0.3234651;
1653318760;961952;1653318760;962029;1653318760;961938;0.325;-0.03219508;0;0;0;-0.3234477;
1653318760;987537;1653318760;987658;1653318760;987502;0.325;-0.03222615;0;0;0;-0.3234208;
1653318761;13123;1653318761;13185;1653318761;13105;0.325;-0.03224446;0;0;0;-0.3233981;
1653318761;38490;1653318761;38558;1653318761;38468;0.325;-0.03225529;0;0;0;-0.3233819;
1653318761;63853;1653318761;63915;1653318761;63835;0.325;-0.03226171;0;0;0;-0.3233711;
1653318761;89209;1653318761;89278;1653318761;89190;0.325;-0.03226552;0;0;0;-0.3233642;
1653318761;114620;1653318761;114727;1653318761;114597;0.325;-0.03226779;0;0;0;-0.3233599;
1653318761;139968;1653318761;140031;1653318761;139950;0.325;-0.03226913;0;0;0;-0.3233573;
1653318761;165337;1653318761;165413;1653318761;165317;0.325;-0.03226993;0;0;0;-0.3233557;
1653318761;190760;1653318761;190825;1653318761;190742;0.325;-0.03227041;0;0;0;-0.3233547;
1653318761;216026;1653318761;216093;1653318761;216008;0.325;-0.0322707;0;0;0;-0.3233542;
1653318761;241410;1653318761;241477;1653318761;241390;0.325;-0.03227086;0;0;0;-0.3233538;
1653318761;266784;1653318761;266823;1653318761;266767;0.325;-0.03227096;0;0;0;-0.3233536;
1653318761;292736;1653318761;292813;1653318761;292716;0.325;-0.03227102;0;0;0;-0.3233535;
1653318761;318201;1653318761;318276;1653318761;318180;0.325;-0.03227106;0;0;0;-0.3233534;
1653318761;349114;1653318761;349182;1653318761;349095;0.325;-0.03227108;0;0;0;-0.3233534;
1653318761;377411;1653318761;377480;1653318761;377389;0.325;-0.03227109;0;0;0;-0.3233533;
1653318761;402827;1653318761;402880;1653318761;402811;0.325;-0.0322711;0;0;0;-0.3233533;
1653318761;428280;1653318761;428449;1653318761;428243;0.325;-0.03227111;0;0;0;-0.3233533;
1653318761;453897;1653318761;453957;1653318761;453879;0.325;-0.03227111;0;0;0;-0.3233533;
1653318761;479312;1653318761;479374;1653318761;479294;0.325;-0.03227111;0;0;0;-0.3233533;
1653318761;505066;1653318761;505127;1653318761;505048;0.325;-0.03227111;0;0;0;-0.3233533;
1653318761;530429;1653318761;530493;1653318761;530412;0.325;-0.03227111;0;0;0;-0.3233533;
1653318761;555790;1653318761;555828;1653318761;555777;0.325;-0.03227111;0;0;0;-0.3233533;
1653318761;585845;1653318761;585922;1653318761;585824;0.325;-0.03227111;0;0;0;-0.3233533;
1653318761;616468;1653318761;616531;1653318761;616451;0.325;-0.03227111;0;0;0;-0.3233533;
1653318761;641779;1653318761;641888;1653318761;641757;0.325;-0.03227111;0;0;0;-0.3233533;
1653318761;667257;1653318761;667324;1653318761;667236;0.325;-0.03227111;0;0;0;-0.3233533;
1653318761;693038;1653318761;693098;1653318761;693019;0.325;-0.03227111;0;0;0;-0.3233533;
1653318761;718393;1653318761;718480;1653318761;718372;0.325;-0.03227111;0;0;0;-0.3233533;
1653318761;743793;1653318761;743860;1653318761;743775;0.325;-0.03227111;0;0;0;-0.3233533;
1653318761;769171;1653318761;769231;1653318761;769153;0.325;-0.03227111;0;0;0;-0.3233533;
1653318761;794554;1653318761;794622;1653318761;794535;0.325;-0.03321287;0;0;0;-0.3359314;
1653318761;819975;1653318761;820041;1653318761;819958;0.325;-0.03370193;0;0;0;-0.3408425;
1653318761;845388;1653318761;845473;1653318761;845370;0.325;-0.03396392;0;0;0;-0.3427152;
1653318761;870821;1653318761;870886;1653318761;870803;0.325;-0.03410801;0;0;0;-0.3434014;
1653318761;896222;1653318761;896270;1653318761;896206;0.325;-0.03418896;0;0;0;-0.3436351;
1653318761;921562;1653318761;921606;1653318761;921548;0.325;-0.03423518;0;0;0;-0.3437029;
1653318761;946933;1653318761;947006;1653318761;946914;0.325;-0.0342619;0;0;0;-0.3437142;
1653318761;972343;1653318761;972453;1653318761;972326;0.325;-0.03427749;0;0;0;-0.3437091;
1653318761;997772;1653318761;997834;1653318761;997754;0.325;-0.03428663;0;0;0;-0.3437012;
1653318762;23121;1653318762;23190;1653318762;23102;0.325;-0.03429203;0;0;0;-0.3436945;
1653318762;48427;1653318762;48500;1653318762;48408;0.325;-0.03429522;0;0;0;-0.3436897;
1653318762;73855;1653318762;73918;1653318762;73837;0.325;-0.03429711;0;0;0;-0.3436866;
1653318762;99250;1653318762;99310;1653318762;99232;0.325;-0.03429823;0;0;0;-0.3436845;
1653318762;124602;1653318762;124664;1653318762;124584;0.325;-0.0342989;0;0;0;-0.3436832;
1653318762;149975;1653318762;150040;1653318762;149955;0.325;-0.0342993;0;0;0;-0.3436825;
1653318762;175377;1653318762;175446;1653318762;175356;0.325;-0.03429953;0;0;0;-0.343682;
1653318762;201323;1653318762;201374;1653318762;201308;0.325;-0.03429967;0;0;0;-0.3436817;
1653318762;226777;1653318762;226841;1653318762;226759;0.325;-0.03429975;0;0;0;-0.3436815;
1653318762;252269;1653318762;252416;1653318762;252194;0.325;-0.03429981;0;0;0;-0.3436815;
1653318762;277777;1653318762;277839;1653318762;277758;0.325;-0.03429983;0;0;0;-0.3436814;
1653318762;303196;1653318762;303259;1653318762;303178;0.325;-0.03429985;0;0;0;-0.3436814;
1653318762;328486;1653318762;328552;1653318762;328466;0.325;-0.03429986;0;0;0;-0.3436813;
1653318762;354123;1653318762;354160;1653318762;354109;0.325;-0.03429987;0;0;0;-0.3436813;
1653318762;379458;1653318762;379518;1653318762;379441;0.325;-0.03429987;0;0;0;-0.3436813;
1653318762;408482;1653318762;408566;1653318762;408454;0.325;-0.03429987;0;0;0;-0.3436813;
1653318762;433921;1653318762;433989;1653318762;433903;0.325;-0.03429988;0;0;0;-0.3436813;
1653318762;459301;1653318762;459361;1653318762;459282;0.325;-0.03429988;0;0;0;-0.3436813;
1653318762;484666;1653318762;484706;1653318762;484652;0.325;-0.03429988;0;0;0;-0.3436813;
1653318762;511068;1653318762;511126;1653318762;511051;0.325;-0.03429988;0;0;0;-0.3436813;
1653318762;536512;1653318762;536575;1653318762;536494;0.325;-0.03429988;0;0;0;-0.3436813;
1653318762;561862;1653318762;561924;1653318762;561844;0.325;-0.03429988;0;0;0;-0.3436813;
1653318762;593056;1653318762;593138;1653318762;593028;0.325;-0.03429988;0;0;0;-0.3436813;
1653318762;618458;1653318762;618526;1653318762;618440;0.325;-0.03429988;0;0;0;-0.3436813;
1653318762;643860;1653318762;643922;1653318762;643842;0.325;-0.03429988;0;0;0;-0.3436813;
1653318762;669288;1653318762;669325;1653318762;669273;0.325;-0.03429988;0;0;0;-0.3436813;
1653318762;695116;1653318762;695176;1653318762;695098;0.325;-0.03429988;0;0;0;-0.3436813;
1653318762;720615;1653318762;720680;1653318762;720597;0.325;-0.03429988;0;0;0;-0.3436813;
1653318762;746313;1653318762;746374;1653318762;746295;0.325;-0.03159833;0;0;0;-0.3075994;
1653318762;771823;1653318762;771908;1653318762;771799;0.325;-0.03019539;0;0;0;-0.2935113;
1653318762;797431;1653318762;797500;1653318762;797411;0.325;-0.02944385;0;0;0;-0.2881392;
1653318762;822823;1653318762;822883;1653318762;822806;0.325;-0.02903051;0;0;0;-0.2861707;
1653318762;848196;1653318762;848274;1653318762;848177;0.325;-0.0287983;0;0;0;-0.2855003;
1653318762;873655;1653318762;873717;1653318762;873637;0.325;-0.0286657;0;0;0;-0.2853057;
1653318762;899762;1653318762;899824;1653318762;899744;0.325;-0.02858905;0;0;0;-0.2852733;
1653318762;925158;1653318762;925239;1653318762;925139;0.325;-0.02854434;0;0;0;-0.2852881;
1653318762;950615;1653318762;950687;1653318762;950594;0.325;-0.0285181;0;0;0;-0.2853108;
1653318762;976014;1653318762;976075;1653318762;975996;0.325;-0.02850263;0;0;0;-0.2853299;
1653318763;1367;1653318763;1431;1653318763;1349;0.325;-0.02849348;0;0;0;-0.2853436;
1653318763;26762;1653318763;26829;1653318763;26742;0.325;-0.02848805;0;0;0;-0.2853528;
1653318763;52126;1653318763;52193;1653318763;52108;0.325;-0.02848483;0;0;0;-0.2853586;
1653318763;77475;1653318763;77536;1653318763;77458;0.325;-0.02848292;0;0;0;-0.2853622;
1653318763;102891;1653318763;102958;1653318763;102867;0.325;-0.02848178;0;0;0;-0.2853644;
1653318763;128450;1653318763;128514;1653318763;128429;0.325;-0.02848111;0;0;0;-0.2853658;
1653318763;153871;1653318763;153945;1653318763;153849;0.325;-0.0284807;0;0;0;-0.2853666;
1653318763;179255;1653318763;179325;1653318763;179235;0.325;-0.02848046;0;0;0;-0.2853671;
1653318763;204854;1653318763;204896;1653318763;204837;0.325;-0.02848032;0;0;0;-0.2853674;
1653318763;230129;1653318763;230196;1653318763;230111;0.325;-0.02848023;0;0;0;-0.2853675;
1653318763;255509;1653318763;255587;1653318763;255491;0.325;-0.02848018;0;0;0;-0.2853677;
1653318763;281776;1653318763;281847;1653318763;281737;0.325;-0.02848015;0;0;0;-0.2853677;
1653318763;307151;1653318763;307212;1653318763;307133;0.325;-0.02848013;0;0;0;-0.2853678;
1653318763;334699;1653318763;334765;1653318763;334681;0.325;-0.02848012;0;0;0;-0.2853678;
1653318763;360092;1653318763;360156;1653318763;360074;0.325;-0.02848012;0;0;0;-0.2853678;
1653318763;385871;1653318763;385912;1653318763;385857;0.325;-0.02848011;0;0;0;-0.2853678;
1653318763;411242;1653318763;411302;1653318763;411223;0.325;-0.02848011;0;0;0;-0.2853678;
1653318763;436575;1653318763;436639;1653318763;436557;0.325;-0.02848011;0;0;0;-0.2853678;
1653318763;464267;1653318763;464333;1653318763;464250;0.325;-0.02848011;0;0;0;-0.2853678;
1653318763;491124;1653318763;491218;1653318763;491106;0.325;-0.02848011;0;0;0;-0.2853678;
1653318763;521495;1653318763;521563;1653318763;521456;0.325;-0.02848011;0;0;0;-0.2853678;
1653318763;546933;1653318763;547002;1653318763;546913;0.325;-0.02848011;0;0;0;-0.2853678;
1653318763;572327;1653318763;572410;1653318763;572307;0.325;-0.03391223;0;0;0;-0.3579192;
1653318763;597949;1653318763;598022;1653318763;597928;0.325;-0.03673318;0;0;0;-0.3862467;
1653318763;623424;1653318763;623487;1653318763;623405;0.325;-0.03824433;0;0;0;-0.3970486;
1653318763;649150;1653318763;649243;1653318763;649129;0.325;-0.03907545;0;0;0;-0.4010068;
1653318763;674674;1653318763;674767;1653318763;674654;0.325;-0.03954236;0;0;0;-0.4023549;
1653318763;700183;1653318763;700273;1653318763;700166;0.325;-0.03980899;0;0;0;-0.4027461;
1653318763;725785;1653318763;725851;1653318763;725767;0.325;-0.03996312;0;0;0;-0.4028112;
1653318763;751259;1653318763;751328;1653318763;751241;0.325;-0.04005301;0;0;0;-0.4027815;
1653318763;776802;1653318763;776891;1653318763;776776;0.325;-0.04010577;0;0;0;-0.4027359;
1653318763;802314;1653318763;802375;1653318763;802297;0.325;-0.04013688;0;0;0;-0.4026974;
1653318763;827809;1653318763;827880;1653318763;827790;0.325;-0.04015528;0;0;0;-0.4026698;
1653318763;853298;1653318763;853361;1653318763;853281;0.325;-0.04016619;0;0;0;-0.4026514;
1653318763;878815;1653318763;878902;1653318763;878798;0.325;-0.04017266;0;0;0;-0.4026397;
1653318763;904325;1653318763;904388;1653318763;904307;0.325;-0.04017651;0;0;0;-0.4026324;
1653318763;929783;1653318763;929846;1653318763;929761;0.325;-0.0401788;0;0;0;-0.402628;
1653318763;955245;1653318763;955307;1653318763;955228;0.325;-0.04018016;0;0;0;-0.4026253;
1653318763;981478;1653318763;981543;1653318763;981460;0.325;-0.04018097;0;0;0;-0.4026237;
1653318764;6972;1653318764;7035;1653318764;6955;0.325;-0.04018145;0;0;0;-0.4026227;
1653318764;32439;1653318764;32502;1653318764;32419;0.325;-0.04018174;0;0;0;-0.4026221;
1653318764;57929;1653318764;58000;1653318764;57906;0.325;-0.04018191;0;0;0;-0.4026217;
1653318764;83443;1653318764;83501;1653318764;83427;0.325;-0.04018201;0;0;0;-0.4026215;
1653318764;108939;1653318764;109014;1653318764;108920;0.325;-0.04018207;0;0;0;-0.4026214;
1653318764;134458;1653318764;134524;1653318764;134440;0.325;-0.04018211;0;0;0;-0.4026213;
1653318764;159978;1653318764;160082;1653318764;159957;0.325;-0.04018213;0;0;0;-0.4026213;
1653318764;185518;1653318764;185592;1653318764;185499;0.325;-0.04018214;0;0;0;-0.4026212;
1653318764;211220;1653318764;211283;1653318764;211203;0.325;-0.04018215;0;0;0;-0.4026212;
1653318764;236902;1653318764;236969;1653318764;236883;0.325;-0.04018215;0;0;0;-0.4026212;
1653318764;262375;1653318764;262436;1653318764;262357;0.325;-0.04018216;0;0;0;-0.4026212;
1653318764;287853;1653318764;287913;1653318764;287836;0.325;-0.04018216;0;0;0;-0.4026212;
1653318764;313422;1653318764;313478;1653318764;313405;0.325;-0.04018216;0;0;0;-0.4026212;
1653318764;338881;1653318764;338938;1653318764;338864;0.325;-0.04018216;0;0;0;-0.4026212;
1653318764;364406;1653318764;364512;1653318764;364388;0.325;-0.04018216;0;0;0;-0.4026212;
1653318764;389923;1653318764;389983;1653318764;389907;0.325;-0.04018216;0;0;0;-0.4026212;
1653318764;415458;1653318764;415527;1653318764;415439;0.325;-0.04018216;0;0;0;-0.4026212;
1653318764;440886;1653318764;440946;1653318764;440868;0.325;-0.04018216;0;0;0;-0.4026212;
1653318764;466355;1653318764;466414;1653318764;466339;0.325;-0.04018216;0;0;0;-0.4026212;
1653318764;491889;1653318764;491975;1653318764;491864;0.325;-0.04018216;0;0;0;-0.4026212;
1653318764;517446;1653318764;517508;1653318764;517428;0.325;-0.04018216;0;0;0;-0.4026212;
1653318764;542914;1653318764;542978;1653318764;542895;0.325;-0.02964254;0;0;0;-0.2618539;
1653318764;568463;1653318764;568580;1653318764;568443;0.325;-0.02416921;0;0;0;-0.2068918;
1653318764;594014;1653318764;594077;1653318764;593996;0.325;-0.02123721;0;0;0;-0.1859335;
1653318764;619485;1653318764;619549;1653318764;619467;0.325;-0.01962463;0;0;0;-0.1782535;
1653318764;644926;1653318764;644990;1653318764;644907;0.325;-0.01871872;0;0;0;-0.175638;
1653318764;672323;1653318764;672444;1653318764;672303;0.325;-0.0182014;0;0;0;-0.174879;
1653318764;697959;1653318764;698021;1653318764;697941;0.325;-0.01790235;0;0;0;-0.1747527;
1653318764;723259;1653318764;723317;1653318764;723246;0.325;-0.01772793;0;0;0;-0.1748102;
1653318764;748713;1653318764;748789;1653318764;748693;0.325;-0.01762556;0;0;0;-0.1748987;
1653318764;778240;1653318764;778362;1653318764;778217;0.325;-0.0175652;0;0;0;-0.1749735;
1653318764;803636;1653318764;803698;1653318764;803619;0.325;-0.0175295;0;0;0;-0.1750271;
1653318764;829196;1653318764;829257;1653318764;829179;0.325;-0.01750834;0;0;0;-0.1750626;
1653318764;855484;1653318764;855551;1653318764;855464;0.325;-0.01749578;0;0;0;-0.1750853;
1653318764;880832;1653318764;880893;1653318764;880814;0.325;-0.01748832;0;0;0;-0.1750994;
1653318764;906255;1653318764;906339;1653318764;906231;0.325;-0.01748388;0;0;0;-0.1751081;
1653318764;931669;1653318764;931731;1653318764;931650;0.325;-0.01748124;0;0;0;-0.1751134;
1653318764;957039;1653318764;957100;1653318764;957021;0.325;-0.01747966;0;0;0;-0.1751166;
1653318764;982402;1653318764;982463;1653318764;982384;0.325;-0.01747873;0;0;0;-0.1751185;
1653318765;7689;1653318765;7775;1653318765;7669;0.325;-0.01747817;0;0;0;-0.1751196;
1653318765;33075;1653318765;33160;1653318765;33057;0.325;-0.01747784;0;0;0;-0.1751203;
1653318765;58536;1653318765;58616;1653318765;58494;0.325;-0.01747764;0;0;0;-0.1751207;
1653318765;83986;1653318765;84048;1653318765;83968;0.325;-0.01747753;0;0;0;-0.1751209;
1653318765;111160;1653318765;111226;1653318765;111140;0.325;-0.01747745;0;0;0;-0.1751211;
1653318765;136491;1653318765;136560;1653318765;136473;0.325;-0.01747741;0;0;0;-0.1751212;
1653318765;161906;1653318765;161967;1653318765;161888;0.325;-0.01747739;0;0;0;-0.1751212;
1653318765;187284;1653318765;187324;1653318765;187270;0.325;-0.01747737;0;0;0;-0.1751212;
1653318765;212793;1653318765;212913;1653318765;212758;0.325;-0.01747737;0;0;0;-0.1751213;
1653318765;238734;1653318765;238801;1653318765;238716;0.325;-0.01747736;0;0;0;-0.1751213;
1653318765;264165;1653318765;264239;1653318765;264142;0.325;-0.01747736;0;0;0;-0.1751213;
1653318765;290418;1653318765;290488;1653318765;290399;0.325;-0.01747735;0;0;0;-0.1751213;
1653318765;315806;1653318765;315891;1653318765;315784;0.325;-0.01747735;0;0;0;-0.1751213;
1653318765;341229;1653318765;341297;1653318765;341211;0.325;-0.01747735;0;0;0;-0.1751213;
1653318765;366638;1653318765;366699;1653318765;366621;0.325;-0.01747735;0;0;0;-0.1751213;
1653318765;391965;1653318765;392035;1653318765;391945;0.325;-0.01747735;0;0;0;-0.1751213;
1653318765;417305;1653318765;417415;1653318765;417286;0.325;-0.01747735;0;0;0;-0.1751213;
1653318765;442623;1653318765;442687;1653318765;442605;0.325;-0.01747735;0;0;0;-0.1751213;
1653318765;468195;1653318765;468286;1653318765;468173;0.325;-0.01747735;0;0;0;-0.1751213;
1653318765;494939;1653318765;495002;1653318765;494921;0.325;-0.006672726;0;0;0;-0.03081472;
1653318765;520146;1653318765;520208;1653318765;520129;0.325;-0.001061786;0;0;0;0.02552935;
1653318765;545488;1653318765;545551;1653318765;545471;0.325;0.001943935;0;0;0;0.04701464;
1653318765;571228;1653318765;571293;1653318765;571210;0.325;0.003597055;0;0;0;0.05488767;
1653318765;596748;1653318765;596807;1653318765;596730;0.325;0.004525748;0;0;0;0.05756894;
1653318765;622138;1653318765;622182;1653318765;622123;0.325;0.005056079;0;0;0;0.05834706;
1653318765;647870;1653318765;647933;1653318765;647852;0.325;0.005362646;0;0;0;0.05847657;
1653318765;673238;1653318765;673298;1653318765;673217;0.325;0.005541446;0;0;0;0.05841752;
1653318765;698872;1653318765;698913;1653318765;698857;0.325;0.005646393;0;0;0;0.05832681;
1653318765;724186;1653318765;724252;1653318765;724169;0.325;0.005708269;0;0;0;0.05825014;
1653318765;749623;1653318765;749693;1653318765;749604;0.325;0.005744866;0;0;0;0.05819524;
1653318765;775827;1653318765;775910;1653318765;775802;0.325;0.005766558;0;0;0;0.05815877;
1653318765;801219;1653318765;801295;1653318765;801198;0.325;0.005779434;0;0;0;0.05813551;
1653318765;830769;1653318765;830816;1653318765;830759;0.325;0.005787086;0;0;0;0.05812104;
1653318765;856068;1653318765;856147;1653318765;856045;0.325;0.005791637;0;0;0;0.05811216;
1653318765;882194;1653318765;882264;1653318765;882175;0.325;0.005794344;0;0;0;0.05810677;
1653318765;907570;1653318765;907633;1653318765;907552;0.325;0.005795956;0;0;0;0.05810351;
1653318765;932950;1653318765;933011;1653318765;932933;0.325;0.005796915;0;0;0;0.05810156;
1653318765;958334;1653318765;958398;1653318765;958316;0.325;0.005797486;0;0;0;0.05810038;
1653318765;983661;1653318765;983698;1653318765;983648;0.325;0.005797826;0;0;0;0.05809968;
1653318766;8976;1653318766;9025;1653318766;8961;0.325;0.005798028;0;0;0;0.05809927;
1653318766;34320;1653318766;34380;1653318766;34302;0.325;0.005798149;0;0;0;0.05809902;
1653318766;59696;1653318766;59768;1653318766;59678;0.325;0.005798221;0;0;0;0.05809887;
1653318766;85064;1653318766;85130;1653318766;85046;0.325;0.005798264;0;0;0;0.05809878;
1653318766;110477;1653318766;110548;1653318766;110457;0.325;0.005798289;0;0;0;0.05809873;
1653318766;135886;1653318766;135956;1653318766;135866;0.325;0.005798304;0;0;0;0.05809869;
1653318766;161291;1653318766;161372;1653318766;161270;0.325;0.005798313;0;0;0;0.05809867;
1653318766;187288;1653318766;187364;1653318766;187267;0.325;0.005798319;0;0;0;0.05809866;
1653318766;212705;1653318766;212771;1653318766;212687;0.325;0.005798322;0;0;0;0.05809866;
1653318766;238083;1653318766;238161;1653318766;238062;0.325;0.005798324;0;0;0;0.05809866;
1653318766;263520;1653318766;263601;1653318766;263498;0.325;0.005798325;0;0;0;0.05809865;
1653318766;288888;1653318766;288926;1653318766;288874;0.325;0.005798326;0;0;0;0.05809865;
1653318766;314187;1653318766;314250;1653318766;314169;0.325;0.005798326;0;0;0;0.05809865;
1653318766;339574;1653318766;339641;1653318766;339555;0.325;0.005798326;0;0;0;0.05809865;
1653318766;365148;1653318766;365213;1653318766;365129;0.325;0.005798326;0;0;0;0.05809865;
1653318766;390507;1653318766;390567;1653318766;390489;0.325;0.005798327;0;0;0;0.05809865;
1653318766;416285;1653318766;416349;1653318766;416267;0.325;0.005798327;0;0;0;0.05809865;
1653318766;441688;1653318766;441749;1653318766;441670;0.325;0.005798327;0;0;0;0.05809865;
1653318766;467241;1653318766;467303;1653318766;467220;0.325;0.005798327;0;0;0;0.05809865;
1653318766;492633;1653318766;492705;1653318766;492613;0.325;0.005798327;0;0;0;0.05809865;
1653318766;518039;1653318766;518110;1653318766;518019;0.325;0.005798327;0;0;0;0.05809865;
1653318766;543768;1653318766;543846;1653318766;543747;0.325;0.01679507;0;0;0;0.2049712;
1653318766;570014;1653318766;570075;1653318766;569996;0.325;0.02250579;0;0;0;0.2623172;
1653318766;595466;1653318766;595578;1653318766;595430;0.325;0.02556495;0;0;0;0.2841845;
1653318766;620754;1653318766;620815;1653318766;620736;0.325;0.02724747;0;0;0;0.2921975;
1653318766;646134;1653318766;646197;1653318766;646115;0.325;0.02819267;0;0;0;0.2949265;
1653318766;671637;1653318766;671676;1653318766;671623;0.325;0.02873243;0;0;0;0.2957184;
1653318766;696844;1653318766;696964;1653318766;696826;0.325;0.02904445;0;0;0;0.2958502;
1653318766;722421;1653318766;722460;1653318766;722407;0.325;0.02922643;0;0;0;0.2957901;
1653318766;747736;1653318766;747799;1653318766;747715;0.325;0.02933325;0;0;0;0.2956978;
1653318766;773771;1653318766;773834;1653318766;773753;0.325;0.02939622;0;0;0;0.2956198;
1653318766;799146;1653318766;799210;1653318766;799128;0.325;0.02943347;0;0;0;0.2955639;
1653318766;824464;1653318766;824526;1653318766;824445;0.325;0.02945555;0;0;0;0.2955268;
1653318766;849816;1653318766;849876;1653318766;849798;0.325;0.02946865;0;0;0;0.2955031;
1653318766;875831;1653318766;875913;1653318766;875809;0.325;0.02947644;0;0;0;0.2954884;
1653318766;901309;1653318766;901373;1653318766;901291;0.325;0.02948107;0;0;0;0.2954793;
1653318766;926710;1653318766;926781;1653318766;926688;0.325;0.02948383;0;0;0;0.2954738;
1653318766;952133;1653318766;952197;1653318766;952115;0.325;0.02948547;0;0;0;0.2954705;
1653318766;978065;1653318766;978142;1653318766;978043;0.325;0.02948644;0;0;0;0.2954685;
1653318767;3936;1653318767;4011;1653318767;3915;0.325;0.02948702;0;0;0;0.2954673;
1653318767;29320;1653318767;29393;1653318767;29297;0.325;0.02948737;0;0;0;0.2954666;
1653318767;55350;1653318767;55462;1653318767;55316;0.325;0.02948758;0;0;0;0.2954662;
1653318767;80937;1653318767;80998;1653318767;80920;0.325;0.0294877;0;0;0;0.2954659;
1653318767;106327;1653318767;106392;1653318767;106308;0.325;0.02948777;0;0;0;0.2954658;
1653318767;131666;1653318767;131727;1653318767;131644;0.325;0.02948782;0;0;0;0.2954657;
1653318767;157023;1653318767;157085;1653318767;157005;0.325;0.02948784;0;0;0;0.2954656;
1653318767;182384;1653318767;182460;1653318767;182363;0.325;0.02948786;0;0;0;0.2954656;
1653318767;207769;1653318767;207844;1653318767;207751;0.325;0.02948787;0;0;0;0.2954656;
1653318767;233165;1653318767;233204;1653318767;233152;0.325;0.02948787;0;0;0;0.2954656;
1653318767;259156;1653318767;259221;1653318767;259137;0.325;0.02948788;0;0;0;0.2954656;
1653318767;284490;1653318767;284577;1653318767;284465;0.325;0.02948788;0;0;0;0.2954656;
1653318767;309875;1653318767;309979;1653318767;309854;0.325;0.02948788;0;0;0;0.2954656;
1653318767;335462;1653318767;335502;1653318767;335449;0.325;0.02948788;0;0;0;0.2954656;
1653318767;362151;1653318767;362223;1653318767;362133;0.325;0.02948788;0;0;0;0.2954656;
1653318767;388534;1653318767;388602;1653318767;388516;0.325;0.02948788;0;0;0;0.2954656;
1653318767;413976;1653318767;414040;1653318767;413958;0.325;0.03409588;0;0;0;0.3570101;
1653318767;440367;1653318767;440438;1653318767;440353;0.325;0.03648886;0;0;0;0.3810399;
1653318767;465866;1653318767;465926;1653318767;465849;0.325;0.03777075;0;0;0;0.3902031;
1653318767;491351;1653318767;491415;1653318767;491333;0.325;0.03847578;0;0;0;0.3935608;
1653318767;519691;1653318767;519757;1653318767;519671;0.325;0.03887185;0;0;0;0.3947043;
1653318767;550907;1653318767;550968;1653318767;550890;0.325;0.03909803;0;0;0;0.3950362;
1653318767;576583;1653318767;576644;1653318767;576565;0.325;0.03922878;0;0;0;0.3950914;
1653318767;601995;1653318767;602068;1653318767;601973;0.325;0.03930504;0;0;0;0.3950662;
1653318767;627515;1653318767;627604;1653318767;627488;0.325;0.03934979;0;0;0;0.3950275;
1653318767;653244;1653318767;653304;1653318767;653227;0.325;0.03937618;0;0;0;0.3949948;
1653318767;678739;1653318767;678815;1653318767;678719;0.325;0.03939179;0;0;0;0.3949714;
1653318767;704385;1653318767;704450;1653318767;704368;0.325;0.03940104;0;0;0;0.3949558;
1653318767;729810;1653318767;729873;1653318767;729793;0.325;0.03940653;0;0;0;0.3949459;
1653318767;755280;1653318767;755347;1653318767;755263;0.325;0.0394098;0;0;0;0.3949398;
1653318767;781097;1653318767;781161;1653318767;781080;0.325;0.03941174;0;0;0;0.394936;
1653318767;806776;1653318767;806839;1653318767;806759;0.325;0.03941289;0;0;0;0.3949337;
1653318767;832451;1653318767;832550;1653318767;832433;0.325;0.03941358;0;0;0;0.3949323;
1653318767;858181;1653318767;858247;1653318767;858162;0.325;0.03941399;0;0;0;0.3949315;
1653318767;883930;1653318767;883998;1653318767;883912;0.325;0.03941423;0;0;0;0.394931;
1653318767;910130;1653318767;910191;1653318767;910112;0.325;0.03941438;0;0;0;0.3949307;
1653318767;936186;1653318767;936252;1653318767;936168;0.325;0.03941446;0;0;0;0.3949305;
1653318767;961560;1653318767;961623;1653318767;961542;0.325;0.03941451;0;0;0;0.3949304;
1653318767;987171;1653318767;987234;1653318767;987151;0.325;0.03941454;0;0;0;0.3949303;
1653318768;13278;1653318768;13347;1653318768;13256;0.325;0.03941456;0;0;0;0.3949303;
1653318768;38824;1653318768;38890;1653318768;38805;0.325;0.03941457;0;0;0;0.3949302;
1653318768;65039;1653318768;65108;1653318768;65018;0.325;0.03941458;0;0;0;0.3949302;
1653318768;90537;1653318768;90597;1653318768;90519;0.325;0.03941458;0;0;0;0.3949302;
1653318768;116570;1653318768;116712;1653318768;116550;0.325;0.03941459;0;0;0;0.3949302;
1653318768;142268;1653318768;142336;1653318768;142249;0.325;0.03941459;0;0;0;0.3949302;
1653318768;167782;1653318768;167861;1653318768;167761;0.325;0.03941459;0;0;0;0.3949302;
1653318768;193210;1653318768;193279;1653318768;193187;0.325;0.03941459;0;0;0;0.3949302;
1653318768;219284;1653318768;219373;1653318768;219260;0.325;0.03941459;0;0;0;0.3949302;
1653318768;245263;1653318768;245323;1653318768;245244;0.325;0.03941459;0;0;0;0.3949302;
1653318768;271021;1653318768;271082;1653318768;271002;0.325;0.03941459;0;0;0;0.3949302;
1653318768;297099;1653318768;297160;1653318768;297081;0.325;0.03941459;0;0;0;0.3949302;
1653318768;323030;1653318768;323097;1653318768;323012;0.325;0.03941459;0;0;0;0.3949302;
1653318768;348797;1653318768;348866;1653318768;348777;0.325;0.03941459;0;0;0;0.3949302;
1653318768;374523;1653318768;374598;1653318768;374500;0.325;0.03941459;0;0;0;0.3949302;
1653318768;400122;1653318768;400183;1653318768;400104;0.325;0.04067278;0;0;0;0.4117346;
1653318768;425857;1653318768;425935;1653318768;425835;0.325;0.04132617;0;0;0;0.4182957;
1653318768;451596;1653318768;451661;1653318768;451579;0.325;0.04167618;0;0;0;0.4207977;
1653318768;477254;1653318768;477320;1653318768;477235;0.325;0.04186868;0;0;0;0.4217145;
